{"id":"mainland-china","name":"Mainland China","deaths":3097,"confirmed":80699,"recovered":57320,"last_update":"2020-03-08T00:00:00Z","ts":[{"t":1579651200,"d":17,"c":547,"r":28},{"t":1579737600,"d":18,"c":639,"r":30},{"t":1579824000,"d":26,"c":916,"r":36},{"t":1579910400,"d":42,"c":1399,"r":39},{"t":1579996800,"d":56,"c":2062,"r":49},{"t":1580083200,"d":82,"c":2863,"r":58},{"t":1580169600,"d":131,"c":5494,"r":101},{"t":1580256000,"d":133,"c":6070,"r":120},{"t":1580342400,"d":171,"c":8124,"r":135},{"t":1580428800,"d":213,"c":9783,"r":214},{"t":1580515200,"d":259,"c":11871,"r":275},{"t":1580601600,"d":361,"c":16607,"r":463},{"t":1580688000,"d":425,"c":19693,"r":614},{"t":1580774400,"d":490,"c":23680,"r":843},{"t":1580860800,"d":562,"c":27409,"r":1115},{"t":1580947200,"d":632,"c":30553,"r":1476},{"t":1581033600,"d":717,"c":34075,"r":1998},{"t":1581120000,"d":804,"c":36778,"r":2595},{"t":1581206400,"d":904,"c":39790,"r":3218},{"t":1581292800,"d":1011,"c":42306,"r":3917},{"t":1581379200,"d":1111,"c":44327,"r":4635},{"t":1581465600,"d":1116,"c":44699,"r":5079},{"t":1581552000,"d":1368,"c":59832,"r":6213},{"t":1581638400,"d":1520,"c":66292,"r":7973},{"t":1581724800,"d":1662,"c":68347,"r":9294},{"t":1581811200,"d":1765,"c":70446,"r":10748},{"t":1581897600,"d":1863,"c":72364,"r":12455},{"t":1581984000,"d":2002,"c":74139,"r":14199},{"t":1582070400,"d":2114,"c":74546,"r":15952},{"t":1582156800,"d":2236,"c":74999,"r":18002},{"t":1582243200,"d":2236,"c":75472,"r":18693},{"t":1582329600,"d":2441,"c":76922,"r":22687},{"t":1582416000,"d":2443,"c":76938,"r":23170},{"t":1582502400,"d":2593,"c":77152,"r":24990},{"t":1582588800,"d":2663,"c":77660,"r":27650},{"t":1582675200,"d":2715,"c":78065,"r":30053},{"t":1582761600,"d":2744,"c":78498,"r":32898},{"t":1582848000,"d":2788,"c":78824,"r":36291},{"t":1582934400,"d":2835,"c":79251,"r":39279},{"t":1583020800,"d":2870,"c":79826,"r":42118},{"t":1583107200,"d":2912,"c":80026,"r":44810},{"t":1583193600,"d":2945,"c":80151,"r":47404},{"t":1583280000,"d":2981,"c":80271,"r":49955},{"t":1583366400,"d":3013,"c":80422,"r":52240},{"t":1583452800,"d":3042,"c":80573,"r":53888},{"t":1583539200,"d":3070,"c":80652,"r":55478},{"t":1583625600,"d":3097,"c":80699,"r":57320}],"provinces":[{"Lat":31.202,"Lng":121.4491,"id":"shanghai","name":"Shanghai","deaths":3,"confirmed":342,"recovered":314,"last_update":"2020-03-08T00:00:00Z"},{"Lat":37.5777,"Lng":112.2922,"id":"shanxi","name":"Shanxi","deaths":0,"confirmed":133,"recovered":126,"last_update":"2020-03-08T00:00:00Z"},{"Lat":31.8257,"Lng":117.2264,"id":"anhui","name":"Anhui","deaths":6,"confirmed":990,"recovered":984,"last_update":"2020-03-08T00:00:00Z"},{"Lat":36.0611,"Lng":103.8343,"id":"gansu","name":"Gansu","deaths":2,"confirmed":124,"recovered":87,"last_update":"2020-03-08T00:00:00Z"},{"Lat":36.3427,"Lng":118.1498,"id":"shandong","name":"Shandong","deaths":6,"confirmed":758,"recovered":642,"last_update":"2020-03-08T00:00:00Z"},{"Lat":27.6104,"Lng":111.7088,"id":"hunan","name":"Hunan","deaths":4,"confirmed":1018,"recovered":968,"last_update":"2020-03-08T00:00:00Z"},{"Lat":41.2956,"Lng":122.6085,"id":"liaoning","name":"Liaoning","deaths":1,"confirmed":125,"recovered":109,"last_update":"2020-03-08T00:00:00Z"},{"Lat":39.3054,"Lng":117.323,"id":"tianjin","name":"Tianjin","deaths":3,"confirmed":136,"recovered":128,"last_update":"2020-03-08T00:00:00Z"},{"Lat":32.9711,"Lng":119.455,"id":"jiangsu","name":"Jiangsu","deaths":0,"confirmed":631,"recovered":612,"last_update":"2020-03-08T00:00:00Z"},{"Lat":27.614,"Lng":115.7221,"id":"jiangxi","name":"Jiangxi","deaths":1,"confirmed":935,"recovered":919,"last_update":"2020-03-08T00:00:00Z"},{"Lat":35.1917,"Lng":108.8701,"id":"shaanxi","name":"Shaanxi","deaths":1,"confirmed":245,"recovered":227,"last_update":"2020-03-08T00:00:00Z"},{"Lat":41.1129,"Lng":85.2401,"id":"xinjiang","name":"Xinjiang","deaths":3,"confirmed":76,"recovered":73,"last_update":"2020-03-08T00:00:00Z"},{"Lat":26.0789,"Lng":117.9874,"id":"fujian","name":"Fujian","deaths":1,"confirmed":296,"recovered":295,"last_update":"2020-03-08T00:00:00Z"},{"Lat":23.8298,"Lng":108.7881,"id":"guangxi","name":"Guangxi","deaths":2,"confirmed":252,"recovered":223,"last_update":"2020-03-08T00:00:00Z"},{"Lat":26.8154,"Lng":106.8748,"id":"guizhou","name":"Guizhou","deaths":2,"confirmed":146,"recovered":117,"last_update":"2020-03-08T00:00:00Z"},{"Lat":23.3417,"Lng":113.4244,"id":"guangdong","name":"Guangdong","deaths":7,"confirmed":1352,"recovered":1256,"last_update":"2020-03-08T00:00:00Z"},{"Lat":19.1959,"Lng":109.7453,"id":"hainan","name":"Hainan","deaths":6,"confirmed":168,"recovered":159,"last_update":"2020-03-08T00:00:00Z"},{"Lat":29.1832,"Lng":120.0934,"id":"zhejiang","name":"Zhejiang","deaths":1,"confirmed":1215,"recovered":1161,"last_update":"2020-03-08T00:00:00Z"},{"Lat":37.2692,"Lng":106.1655,"id":"ningxia","name":"Ningxia","deaths":0,"confirmed":75,"recovered":71,"last_update":"2020-03-08T00:00:00Z"},{"Lat":31.6927,"Lng":88.0924,"id":"tibet","name":"Tibet","deaths":0,"confirmed":1,"recovered":1,"last_update":"2020-03-08T00:00:00Z"},{"Lat":35.7452,"Lng":95.9956,"id":"qinghai","name":"Qinghai","deaths":0,"confirmed":18,"recovered":18,"last_update":"2020-03-08T00:00:00Z"},{"Lat":30.0572,"Lng":107.874,"id":"chongqing","name":"Chongqing","deaths":6,"confirmed":576,"recovered":527,"last_update":"2020-03-08T00:00:00Z"},{"Lat":47.862,"Lng":127.7615,"id":"heilongjiang","name":"Heilongjiang","deaths":13,"confirmed":481,"recovered":412,"last_update":"2020-03-08T00:00:00Z"},{"Lat":44.0935,"Lng":113.9448,"id":"inner-mongolia","name":"Inner Mongolia","deaths":1,"confirmed":75,"recovered":70,"last_update":"2020-03-08T00:00:00Z"},{"Lat":33.88202,"Lng":113.614,"id":"henan","name":"Henan","deaths":22,"confirmed":1272,"recovered":1247,"last_update":"2020-03-08T00:00:00Z"},{"Lat":30.9756,"Lng":112.2707,"id":"hubei","name":"Hubei","deaths":2986,"confirmed":67707,"recovered":45235,"last_update":"2020-03-08T00:00:00Z"},{"Lat":43.6661,"Lng":126.1923,"id":"jilin","name":"Jilin","deaths":1,"confirmed":93,"recovered":90,"last_update":"2020-03-08T00:00:00Z"},{"Lat":24.974,"Lng":101.487,"id":"yunnan","name":"Yunnan","deaths":2,"confirmed":174,"recovered":170,"last_update":"2020-03-08T00:00:00Z"},{"Lat":40.1824,"Lng":116.4142,"id":"beijing","name":"Beijing","deaths":8,"confirmed":428,"recovered":308,"last_update":"2020-03-08T00:00:00Z"},{"Lat":38.0428,"Lng":114.5149,"id":"hebei","name":"Hebei","deaths":6,"confirmed":318,"recovered":307,"last_update":"2020-03-08T00:00:00Z"},{"Lat":30.6171,"Lng":102.7103,"id":"sichuan","name":"Sichuan","deaths":3,"confirmed":539,"recovered":464,"last_update":"2020-03-08T00:00:00Z"}]}